City_ID,City,Cloudiness,Country,Date,Humidity,Lat,Lng,Max Temp,Wind Speed
0,puerto del rosario,100,ES,1587600364,72,28.5,-13.86,64.4,11.41
1,urengoy,91,RU,1587600364,89,65.97,78.37,36.14,22.53
2,saskylakh,80,RU,1587600244,96,71.92,114.08,19.36,4.36
3,pirojpur,51,BD,1587600364,89,22.57,89.98,75.7,3.49
4,moose factory,1,CA,1587600364,52,51.26,-80.61,17.6,12.75
5,vaini,75,TO,1587600240,88,-21.2,-175.2,78.8,5.82
6,rikitea,100,PF,1587600239,78,-23.12,-134.97,75.74,15.99
7,upernavik,18,GL,1587600240,95,72.79,-56.15,29.91,8.5
8,forestville,90,US,1587600290,22,38.85,-76.88,59.0,5.82
9,santana,75,BR,1587600364,100,-0.06,-51.18,78.8,6.93
10,mezen,96,RU,1587600364,95,65.85,44.24,22.21,10.78
11,los llanos de aridane,98,ES,1587600251,55,28.66,-17.92,64.4,9.17
12,ouadda,67,CF,1587600364,51,8.08,22.4,75.76,3.69
13,vardo,100,NO,1587600245,90,70.37,31.11,29.64,28.3
14,samarai,61,PG,1587600364,69,-10.62,150.67,83.17,9.48
15,torbay,75,CA,1587600263,86,47.67,-52.73,36.0,38.03
16,norman wells,75,CA,1587600263,57,65.28,-126.83,23.0,6.93
17,daitari,89,IN,1587600365,83,21.1,85.75,74.66,4.0
18,port alfred,0,ZA,1587600244,92,-33.59,26.89,57.99,1.99
19,pangnirtung,100,CA,1587600252,94,66.15,-65.71,21.99,3.67
20,san patricio,75,MX,1587600100,78,19.22,-104.7,78.8,11.41
21,ushuaia,56,AR,1587600239,65,-54.8,-68.3,41.0,5.82
22,koutiala,75,ML,1587600365,30,12.39,-5.46,92.19,6.55
23,faanui,11,PF,1587600243,77,-16.48,-151.75,80.69,15.77
24,harper,31,LR,1587600365,84,4.38,-7.72,80.49,5.73
25,kinablangan,33,PH,1587600365,69,7.69,126.55,83.44,4.76
26,mahebourg,40,MU,1587600247,88,-20.41,57.7,75.2,6.93
27,boyolangu,83,ID,1587600365,81,-8.12,111.89,79.99,3.06
28,haverfordwest,89,GB,1587600365,62,51.8,-4.97,57.0,8.05
29,husavik,100,IS,1587600365,86,66.04,-17.34,39.2,14.99
30,buy,31,RU,1587600365,91,58.48,41.53,27.36,8.97
31,wajima,75,JP,1587600365,87,37.4,136.9,44.6,9.17
32,atuona,9,PF,1587600242,66,-9.8,-139.03,82.26,12.21
33,mataura,98,NZ,1587600239,79,-46.19,168.86,55.99,1.01
34,najran,40,SA,1587600262,64,17.49,44.13,71.6,2.37
35,arraial do cabo,0,BR,1587600007,74,-22.97,-42.03,73.98,9.06
36,castro,0,BR,1587600161,51,-24.79,-50.01,56.79,4.32
37,narsaq,100,GL,1587600246,36,60.92,-46.05,46.4,36.91
38,butaritari,90,KI,1587600245,79,3.07,172.79,83.52,15.23
39,hanyang,100,CN,1587600365,80,32.14,105.51,55.0,3.53
40,airai,39,TL,1587600024,49,-8.93,125.41,67.14,4.56
41,busselton,35,AU,1587600240,80,-33.65,115.33,60.01,2.93
42,ancud,65,CL,1587599944,87,-41.87,-73.82,50.0,4.7
43,georgetown,20,MY,1587600239,100,5.41,100.34,78.8,3.36
44,kodiak,90,US,1587600246,75,57.79,-152.41,46.4,6.82
45,chokurdakh,93,RU,1587600253,95,70.63,147.92,21.67,9.82
46,yellowknife,75,CA,1587600108,58,62.46,-114.35,26.6,8.05
47,leh,100,IN,1587600366,18,34.17,77.58,31.95,2.35
48,souillac,40,MU,1587600254,88,-20.52,57.52,75.2,6.93
49,port elizabeth,0,ZA,1587600165,93,-33.92,25.57,53.6,3.36
50,grindavik,75,IS,1587600241,93,63.84,-22.43,41.0,11.41
51,acari,1,PE,1587600366,61,-15.43,-74.62,71.44,3.11
52,tiksi,100,RU,1587600253,97,71.69,128.87,25.36,4.27
53,barrow,90,US,1587600154,92,71.29,-156.79,21.2,8.05
54,mar del plata,50,AR,1587600131,82,-38.0,-57.56,60.01,4.7
55,port moresby,40,PG,1587600366,74,-9.44,147.18,86.0,3.36
56,piacabucu,96,BR,1587600366,83,-10.41,-36.43,78.31,3.67
57,jamestown,75,US,1587600091,47,42.1,-79.24,36.0,10.29
58,matagami,1,CA,1587600152,66,49.75,-77.63,14.0,23.04
59,qaanaaq,90,GL,1587600240,91,77.48,-69.36,17.62,1.07
60,itarema,100,BR,1587600366,87,-2.92,-39.92,75.6,2.77
61,makakilo city,1,US,1587600327,65,21.35,-158.09,82.4,8.05
62,villablino,98,ES,1587600330,95,42.94,-6.32,54.0,2.04
63,contamana,48,PE,1587600366,63,-7.33,-75.02,79.81,2.89
64,florianopolis,0,BR,1587600158,83,-27.61,-48.5,71.6,4.7
65,talcahuano,90,CL,1587600245,100,-36.72,-73.12,53.6,8.05
66,clyde river,75,CA,1587600244,77,70.47,-68.59,6.8,12.75
67,guaruja,27,BR,1587600141,79,-23.99,-46.26,75.99,1.99
68,henties bay,5,NA,1587600247,86,-22.12,14.28,60.01,3.0
69,cape town,35,ZA,1587599975,82,-33.93,18.42,66.0,8.05
70,kapaa,1,US,1587599996,69,22.08,-159.32,80.6,9.17
71,vila franca do campo,40,PT,1587600241,87,37.72,-25.43,59.0,8.05
72,ayagoz,15,KZ,1587600366,34,47.97,80.44,52.99,2.39
73,punta arenas,40,CL,1587600241,93,-53.15,-70.92,44.01,2.35
74,porbandar,51,IN,1587600366,76,21.64,69.61,79.61,11.52
75,slave lake,1,CA,1587600366,46,55.28,-114.77,48.2,17.22
76,lebu,55,CL,1587600257,60,-37.62,-73.65,55.53,4.36
77,moranbah,0,AU,1587600367,45,-22.0,148.05,80.73,14.09
78,polunochnoye,81,RU,1587600367,89,60.87,60.42,31.37,9.06
79,luderitz,94,NA,1587600247,93,-26.65,15.16,59.0,21.92
80,oyama,20,JP,1587600367,39,36.3,139.8,61.0,5.82
81,qui nhon,100,VN,1587600334,83,13.77,109.23,80.08,1.5
82,mount isa,0,AU,1587600247,19,-20.73,139.5,86.0,12.75
83,ponta delgada,40,PT,1587600246,87,37.73,-25.67,59.0,8.05
84,san vicente,1,AR,1587600367,56,-26.62,-54.13,62.29,2.66
85,warrington,69,GB,1587600367,71,53.39,-2.58,50.0,9.17
86,xuanzhou,49,CN,1587600367,73,30.95,118.76,57.81,6.24
87,victoria,40,HK,1587600056,94,22.29,114.16,68.0,6.93
88,cherskiy,0,RU,1587600259,92,68.75,161.3,24.42,8.57
89,topolobampo,5,MX,1587600367,22,25.6,-109.05,87.01,18.34
90,hilo,90,US,1587600007,54,19.73,-155.09,82.4,13.87
91,puerto ayora,20,EC,1587600044,70,-0.74,-90.35,84.2,14.99
92,camana,33,PE,1587600367,72,-16.62,-72.71,68.95,3.87
93,hamilton,1,US,1587600094,37,39.18,-84.53,66.99,13.87
94,east london,16,ZA,1587600244,80,-33.02,27.91,64.58,1.83
95,albany,2,US,1587600241,31,42.6,-73.97,37.99,11.52
96,hami,47,CN,1587600249,17,42.8,93.45,61.63,9.98
97,coihaique,75,CL,1587600249,100,-45.58,-72.07,39.2,2.24
98,lavrentiya,96,RU,1587600250,91,65.58,-171.0,22.41,4.43
99,newton,77,US,1587600307,29,42.34,-71.21,42.01,21.92
100,tuktoyaktuk,90,CA,1587600242,85,69.45,-133.04,14.0,23.04
101,barranca,21,PE,1587600367,70,-10.75,-77.77,71.58,7.63
102,victor harbor,98,AU,1587600367,58,-35.57,138.62,69.01,5.01
103,aktau,75,KZ,1587600262,87,43.65,51.2,48.2,8.95
104,maloy,72,NO,1587600368,93,61.94,5.11,42.8,9.17
105,bud,42,US,1587600368,35,39.45,-86.18,69.01,8.66
106,khani,90,GE,1587600368,87,41.96,42.96,44.6,9.17
107,mayumba,100,GA,1587600368,86,-3.43,10.66,79.63,7.25
108,puerto maldonado,99,PE,1587600250,77,-12.6,-69.18,77.43,1.81
109,isangel,75,VU,1587600260,78,-19.55,169.27,82.4,8.05
110,bowen,75,AU,1587600368,78,-20.02,148.23,84.99,6.93
111,amudat,100,UG,1587600368,57,1.95,34.95,69.44,1.7
112,new norfolk,77,AU,1587600243,68,-42.78,147.06,57.0,3.0
113,ponta do sol,20,PT,1587600260,63,32.67,-17.1,60.8,8.05
114,abu zabad,0,SD,1587600368,12,12.35,29.25,74.98,8.79
115,merauke,100,ID,1587600260,70,-8.47,140.33,83.68,10.25
116,myanaung,4,MM,1587600368,53,18.28,95.32,76.03,2.57
117,avera,1,US,1587600253,56,33.19,-82.53,68.0,5.41
118,te anau,99,NZ,1587600368,69,-45.42,167.72,49.96,7.47
119,lebyazhye,100,RU,1587600368,62,55.27,66.49,46.35,15.12
120,lagoa,63,PT,1587600368,82,39.05,-27.98,58.73,19.33
121,avarua,72,CK,1587600245,74,-21.21,-159.78,84.2,9.17
122,ixtapa,40,MX,1587600368,78,20.7,-105.2,77.0,10.29
123,cypress lake,1,US,1587600368,31,26.54,-81.9,87.8,9.17
124,olafsvik,100,IS,1587600258,78,64.89,-23.71,41.86,10.27
125,auki,85,SB,1587600368,67,-8.77,160.7,85.71,4.99
126,waingapu,83,ID,1587600244,76,-9.66,120.26,82.29,13.15
127,halifax,75,CA,1587600097,80,44.65,-63.57,37.0,16.11
128,touros,20,BR,1587600262,83,-5.2,-35.46,80.6,4.7
129,cidreira,69,BR,1587600147,85,-30.18,-50.21,67.86,7.31
130,natal,20,BR,1587600369,83,-5.79,-35.21,80.6,4.7
131,yanaul,93,RU,1587600369,91,56.27,54.93,36.41,10.92
132,rolla,90,US,1587600226,71,37.95,-91.77,57.2,11.41
133,pangani,93,TZ,1587600369,86,-5.43,38.97,78.3,11.14
134,kupang,7,ID,1587600257,74,-10.17,123.58,81.84,13.47
135,mehamn,42,NO,1587600248,87,71.04,27.85,27.07,13.11
136,antalya,40,TR,1587600369,59,36.77,30.72,64.4,10.29
137,kaeo,95,NZ,1587600369,83,-35.1,173.78,66.0,5.99
138,margate,4,GB,1587600369,74,51.38,1.39,53.01,1.99
139,cockburn town,57,TC,1587600251,73,21.46,-71.14,80.67,9.57
140,poum,16,NC,1587600369,77,-20.23,164.02,78.03,11.34
141,komsomolskiy,7,UZ,1587600369,48,40.43,71.72,60.8,6.93
142,portree,10,GB,1587600369,68,57.41,-6.19,46.99,1.01
143,hithadhoo,38,MV,1587600045,74,-0.6,73.08,83.98,10.29
144,longview,75,US,1587600369,88,32.5,-94.74,71.6,8.05
145,cabo san lucas,5,MX,1587600185,42,22.89,-109.91,80.6,8.05
146,souris,75,CA,1587600369,41,49.62,-100.26,59.0,8.05
147,nikolskoye,38,RU,1587600240,80,59.7,30.79,37.99,6.71
148,ryotsu,75,JP,1587600369,70,38.08,138.43,48.2,5.82
149,kruisfontein,0,ZA,1587600251,71,-34.0,24.73,53.55,3.11
150,saldanha,82,ZA,1587600241,77,-33.01,17.94,60.8,6.93
151,palmer,20,US,1587600369,24,42.16,-72.33,42.8,19.46
152,nome,1,US,1587600243,68,64.5,-165.41,28.0,4.88
153,longyearbyen,0,SJ,1587599990,78,78.22,15.64,12.2,3.0
154,tasiilaq,100,GL,1587600246,93,65.61,-37.64,37.4,33.33
155,broome,75,US,1587600258,37,42.25,-75.83,39.0,17.22
156,luancheng,0,CN,1587600369,15,37.88,114.65,50.0,6.71
157,oktyabrskoye,100,RU,1587600369,100,43.06,44.74,39.2,6.71
158,bluff,98,NZ,1587600246,79,-46.6,168.33,55.99,1.01
159,oktyabrskiy,100,RU,1587600369,89,54.48,53.47,35.06,14.7
160,mitu,95,CO,1587600370,92,1.2,-70.17,73.63,2.59
161,aksu,83,CN,1587600370,44,41.12,80.26,56.52,3.0
162,hay river,75,CA,1587600023,86,60.82,-115.8,30.2,9.17
163,ucluelet,40,CA,1587600095,82,48.93,-125.55,57.0,3.36
164,harsin,33,IR,1587600370,66,34.27,47.59,55.4,6.93
165,lasa,5,IT,1587600370,64,46.62,10.7,44.01,2.86
166,goundam,2,ML,1587600370,12,16.41,-3.67,86.72,9.95
167,waverly,90,US,1587600370,74,42.74,-84.62,37.4,10.29
168,kahului,40,US,1587600244,51,20.89,-156.47,86.0,13.87
169,doha,0,QA,1587600342,69,25.29,51.53,79.0,3.36
170,shache,40,CN,1587600249,31,38.42,77.24,58.1,3.4
171,vila velha,40,BR,1587600057,83,-20.33,-40.29,75.2,3.36
172,altar,0,MX,1587600370,20,30.7,-111.82,84.99,5.99
173,adrar,0,MR,1587600370,14,20.5,-10.07,80.76,6.8
174,porto seguro,75,BR,1587600370,74,-16.45,-39.06,78.8,6.93
175,sorochinsk,89,RU,1587600370,82,52.43,53.16,35.33,15.57
176,chapais,90,CA,1587600253,72,49.78,-74.85,14.0,13.87
177,irtyshskiy,100,RU,1587600370,68,58.33,68.13,45.86,10.2
178,bathsheba,40,BB,1587600250,69,13.22,-59.52,80.6,16.11
179,lorengau,81,PG,1587600258,66,-2.02,147.27,84.27,3.91
180,bredasdorp,0,ZA,1587600245,87,-34.53,20.04,48.2,1.41
181,khatanga,18,RU,1587600239,97,71.97,102.5,23.14,2.86
182,dikson,67,RU,1587600257,96,73.51,80.55,17.17,10.67
183,saint-joseph,40,RE,1587600248,83,-21.37,55.62,71.6,4.7
184,provideniya,58,RU,1587600242,62,64.38,-173.3,21.2,4.47
185,vestmannaeyjar,62,IS,1587600370,74,63.44,-20.27,43.14,2.84
186,tessalit,0,ML,1587600125,10,20.2,1.01,83.03,9.44
187,karaj,40,IR,1587600370,37,35.84,51.01,66.2,4.7
188,umea,84,SE,1587600370,86,63.83,20.26,33.8,3.36
189,correntina,100,BR,1587600370,77,-13.34,-44.64,71.38,4.0
190,linkoping,27,SE,1587600371,46,58.41,15.62,53.6,6.93
191,havre,0,FR,1587600371,76,49.58,0.33,51.8,6.93
192,maturin,45,VE,1587600371,63,9.75,-63.18,78.78,7.87
193,sakakah,0,SA,1587600371,14,29.97,40.21,78.8,13.87
194,pisco,7,PE,1587600252,77,-13.7,-76.22,69.8,14.99
195,tomatlan,78,MX,1587600371,54,19.93,-105.25,80.69,7.38
196,bereslavka,33,RU,1587600371,79,48.63,44.04,35.6,11.18
197,necochea,55,AR,1587600061,57,-38.55,-58.74,55.24,6.31
198,sombrio,54,BR,1587600371,84,-29.11,-49.62,65.59,1.88
199,guerrero negro,0,MX,1587600240,51,27.98,-114.06,71.85,17.56
200,san quintin,1,MX,1587600231,58,30.48,-115.95,69.48,15.99
201,loralai,82,PK,1587600260,33,30.37,68.6,63.34,2.91
202,hermanus,3,ZA,1587600240,96,-34.42,19.23,52.0,9.28
203,ugoofaaru,100,MV,1587600242,70,5.67,73.0,84.43,7.61
204,olinda,62,BR,1587600371,83,-8.01,-34.86,78.8,3.36
205,hobart,75,AU,1587600018,54,-42.88,147.33,57.2,6.93
206,namibe,3,AO,1587600245,79,-15.2,12.15,72.91,7.36
207,pevek,0,RU,1587600245,92,69.7,170.31,14.29,5.39
208,severo-kurilsk,100,RU,1587600250,95,50.68,156.12,32.68,39.17
209,dese,19,ET,1587600371,40,11.13,39.63,52.18,0.51
210,iqaluit,90,CA,1587600231,78,63.75,-68.51,12.2,18.34
211,kaspiysk,100,RU,1587600371,87,42.88,47.64,44.6,6.71
212,kununurra,14,AU,1587599961,54,-15.77,128.73,84.2,4.7
213,englehart,1,CA,1587600371,30,47.82,-79.87,30.2,9.17
214,champerico,40,GT,1587600371,59,14.3,-91.92,89.6,9.17
215,peno,69,RU,1587600371,85,56.93,32.74,31.95,5.84
216,padilla,75,CO,1587600371,78,3.22,-76.31,73.4,6.93
217,hualmay,12,PE,1587600371,76,-11.1,-77.61,69.1,6.29
218,klaeng,100,TH,1587600371,88,12.78,101.65,84.0,1.48
219,kathmandu,75,NP,1587600094,100,27.72,85.32,53.6,3.36
220,chuy,88,UY,1587600240,88,-33.7,-53.46,63.34,6.29
221,lucapa,23,AO,1587600372,73,-8.42,20.74,65.19,2.95
222,uppsala,93,SE,1587600372,80,60.0,17.75,43.0,4.7
223,manzanillo,90,CU,1587600255,67,20.34,-77.12,82.22,2.44
224,paamiut,100,GL,1587600251,81,61.99,-49.67,37.09,4.36
225,kiunga,99,PG,1587600372,96,-6.12,141.29,75.87,0.38
226,yaan,96,NG,1587600372,81,7.38,8.57,76.14,8.3
227,roald,15,NO,1587600256,100,62.58,6.13,39.2,6.93
228,am timan,18,TD,1587600372,24,11.03,20.28,84.38,3.09
229,kintampo,96,GH,1587600372,78,8.06,-1.73,75.6,4.97
230,saint-philippe,40,RE,1587600246,83,-21.36,55.77,71.6,4.7
231,yatou,22,CN,1587600240,56,37.15,122.38,47.68,13.27
232,meulaboh,100,ID,1587600248,88,4.14,96.13,78.15,5.26
233,sao mateus,20,BR,1587600372,85,-18.72,-39.86,72.27,7.87
234,roebourne,26,AU,1587600255,37,-20.78,117.13,90.45,16.51
235,nyuzen,75,JP,1587600372,87,36.93,137.5,46.0,8.05
236,bengkulu,100,ID,1587600024,82,-3.8,102.27,78.76,5.44
237,tilichiki,74,RU,1587600258,96,60.47,166.1,26.64,3.11
238,lamu,76,KE,1587600261,82,-2.27,40.9,81.48,8.19
239,khyriv,4,UA,1587600372,78,49.53,22.85,38.62,1.72
240,alice springs,0,AU,1587600259,34,-23.7,133.88,80.6,11.27
241,richards bay,31,ZA,1587600244,85,-28.78,32.04,71.87,11.54
242,turinsk,0,RU,1587600372,76,58.05,63.7,38.97,10.02
243,dwarka,19,IN,1587600373,80,22.24,68.97,81.66,15.5
244,pailon,40,BO,1587600373,74,-17.65,-62.75,80.6,5.82
245,dubna,87,RU,1587600373,83,56.73,37.17,33.26,7.74
246,joane,0,PT,1587600373,93,41.44,-8.41,53.01,2.66
247,kizema,87,RU,1587600373,92,61.11,44.83,23.63,10.11
248,benito juarez,90,MX,1587600373,38,19.39,-99.17,77.0,9.17
249,salta,20,AR,1587600373,77,-24.79,-65.41,68.0,2.24
250,rio grande,81,BR,1587600250,92,-32.03,-52.1,68.0,1.99
251,thompson,90,CA,1587600183,80,55.74,-97.86,33.8,6.93
252,nokaneng,0,BW,1587600373,29,-19.67,22.27,64.96,5.32
253,buraydah,0,SA,1587600244,69,26.33,43.98,73.4,8.97
254,outram,75,MY,1587600373,88,1.28,103.84,82.4,2.24
255,majholi,49,IN,1587600373,24,23.5,79.92,78.69,4.9
256,shimoda,75,JP,1587600241,66,34.67,138.95,52.0,4.7
257,khulo,75,GE,1587600373,93,41.64,42.31,44.6,3.36
258,grand gaube,1,MU,1587600373,85,-20.01,57.66,73.0,1.99
259,kampot,80,KH,1587600373,78,10.62,104.18,82.92,4.25
260,kermanshah,36,IR,1587600373,66,34.31,47.06,55.4,6.93
261,tonj,5,SS,1587600373,56,7.27,28.68,78.51,5.86
262,buchanan,20,LR,1587600373,94,5.88,-10.05,78.8,4.76
263,muisne,75,EC,1587600373,78,0.6,-80.03,82.4,8.05
264,banda aceh,100,ID,1587600373,81,5.56,95.32,80.19,4.72
265,westport,1,US,1587600261,23,41.14,-73.36,48.2,14.99
266,bose,0,IT,1587600373,54,45.46,8.01,53.01,5.14
267,buala,87,SB,1587600374,67,-8.14,159.59,86.22,5.95
268,inhambane,3,MZ,1587600374,85,-23.86,35.38,73.96,11.25
269,pangody,88,RU,1587600374,91,65.85,74.49,38.53,25.1
270,luangwa,6,ZM,1587600374,58,-15.62,30.42,65.12,2.08
271,sandur,59,IN,1587600374,63,15.1,76.55,76.19,6.85
272,markivka,46,UA,1587600374,83,49.52,39.57,33.89,10.83
273,kulhudhuffushi,100,MV,1587600374,68,6.62,73.07,84.7,6.42
274,anshun,100,CN,1587600148,59,26.25,105.93,45.54,9.75
275,bambous virieux,40,MU,1587600246,88,-20.34,57.76,75.2,6.93
276,lompoc,1,US,1587599993,60,34.64,-120.46,79.0,13.87
277,tura,61,IN,1587600245,84,25.52,90.22,65.59,0.25
278,maarianhamina,100,AX,1587600374,75,60.1,19.93,32.0,1.12
279,riyadh,2,SA,1587600374,73,24.69,46.72,73.4,4.7
280,sur,75,OM,1587600374,49,22.57,59.53,83.64,5.26
281,carnarvon,97,AU,1587600245,77,-24.87,113.63,69.8,13.87
282,funadhoo,100,MV,1587600374,68,6.15,73.27,84.63,6.98
283,walvis bay,84,NA,1587600255,77,-22.96,14.51,60.8,6.93
284,constitucion,100,CL,1587600254,67,-35.33,-72.42,57.15,5.73
285,tommot,92,RU,1587600257,75,58.96,126.29,35.28,3.22
286,kamennogorsk,80,RU,1587600374,44,60.95,29.13,39.2,3.36
287,pathein,0,MM,1587600205,84,16.78,94.73,78.33,7.38
288,esperance,9,AU,1587600253,93,-33.87,121.9,57.2,6.93
289,hasaki,75,JP,1587600244,54,35.73,140.83,55.99,4.7
290,coquimbo,90,CL,1587600259,82,-29.95,-71.34,60.8,4.7
291,kiruna,87,SE,1587600374,80,67.86,20.23,35.6,11.41
292,kendari,35,ID,1587600374,81,-3.94,122.5,80.6,3.0
293,wuwei,100,CN,1587600374,21,37.93,102.64,44.01,1.01
294,port hedland,21,AU,1587600239,35,-20.32,118.57,89.6,11.41
295,sangar,100,RU,1587600375,95,63.92,127.47,29.43,12.95
296,kashi,40,CN,1587600375,76,39.45,75.98,50.0,6.71
297,gornoye loo,89,RU,1587600375,81,43.71,39.6,42.8,6.71
298,ewa beach,1,US,1587600375,65,21.32,-158.01,82.4,8.05
299,tolaga bay,100,NZ,1587600375,64,-38.37,178.3,65.95,10.18
300,clarence town,31,AU,1587600375,59,-32.58,151.78,69.01,13.87
301,geilo,83,NO,1587600375,66,60.53,8.21,34.0,1.99
302,cay,87,TR,1587600375,57,38.59,31.03,42.28,6.15
303,calais,0,FR,1587600375,64,50.92,1.83,54.0,1.99
304,nanortalik,75,GL,1587600249,77,60.14,-45.24,37.98,8.59
305,sinnamary,100,GF,1587600246,85,5.38,-52.95,78.39,10.6
306,kutum,29,SD,1587600375,13,14.2,24.67,66.58,8.14
307,dingle,49,PH,1587600375,73,11.0,122.67,83.52,11.65
308,strezhevoy,84,RU,1587600257,66,60.73,77.59,50.0,11.18
309,pimentel,19,PE,1587600261,77,-6.84,-79.93,70.38,11.72
310,atasu,83,KZ,1587600375,25,48.68,71.64,63.16,17.25
311,tanete,96,ID,1587600375,77,-3.94,119.78,81.45,7.99
312,alyangula,22,AU,1587600375,74,-13.85,136.42,84.2,3.36
313,havre-saint-pierre,90,CA,1587600375,86,50.23,-63.6,30.2,14.99
314,bethel,1,US,1587600245,28,41.37,-73.41,45.0,11.41
315,damaturu,71,NG,1587600375,12,11.75,11.96,84.88,6.85
316,cururupu,94,BR,1587600254,90,-1.83,-44.87,76.77,4.5
317,makaryev,58,RU,1587600375,91,57.88,43.81,27.01,11.61
318,changji,0,CN,1587600375,27,44.02,87.32,62.6,4.47
319,sao filipe,8,CV,1587600242,76,14.9,-24.5,71.42,18.66
320,gorontalo,60,ID,1587600376,75,0.54,123.06,82.51,0.54
321,lahat,100,ID,1587600376,83,-3.8,103.53,75.13,2.33
322,shetpe,100,KZ,1587600253,57,44.17,52.12,45.97,5.48
323,porec,0,HR,1587600376,61,45.23,13.59,55.4,2.24
324,ribeira grande,28,PT,1587600249,79,38.52,-28.7,58.14,16.87
325,abalak,100,RU,1587600376,67,58.13,68.59,45.75,9.66
326,santa maria,71,BR,1587600260,64,-29.68,-53.81,68.0,2.24
327,tuatapere,92,NZ,1587600240,79,-46.13,167.68,55.99,1.01
328,kingsport,75,US,1587600376,34,36.55,-82.56,64.4,1.74
329,shumikha,83,RU,1587600376,68,55.23,63.3,41.11,17.76
330,aklavik,75,CA,1587600244,62,68.22,-135.01,21.2,6.93
331,mahajanga,20,MG,1587600376,88,-15.72,46.32,77.0,3.36
332,tabou,25,CI,1587600376,86,4.42,-7.35,79.88,5.41
333,katherine,0,AU,1587600376,58,-14.47,132.27,82.4,5.82
334,zamora,40,EC,1587600331,57,-4.07,-78.96,78.8,13.87
335,kaitangata,94,NZ,1587600256,89,-46.28,169.85,51.01,4.0
336,utinga,20,BR,1587600376,83,-5.82,-35.4,80.6,4.7
337,tiarei,3,PF,1587600376,62,-17.53,-149.33,87.8,8.05
338,saint george,1,US,1587600253,21,37.1,-113.58,80.01,12.75
339,byron bay,90,AU,1587600210,73,-28.65,153.62,71.01,8.05
340,mackay,3,AU,1587600256,83,-21.15,149.2,80.01,8.05
341,inirida,98,CO,1587600255,95,3.87,-67.92,72.91,3.58
342,kungurtug,0,RU,1587600265,34,50.6,97.52,40.08,2.1
343,suruc,1,TR,1587600376,58,36.98,38.42,53.6,4.7
344,kristiansund,53,NO,1587600377,93,63.11,7.73,41.0,8.05
345,jutai,91,BR,1587600377,88,-5.18,-68.9,76.35,1.97
346,lewiston,40,US,1587600314,34,44.1,-70.21,37.4,13.87
347,taoudenni,4,ML,1587600240,13,22.68,-3.98,83.59,7.85
348,balkanabat,33,TM,1587600240,46,39.51,54.37,65.5,1.19
349,zhoucheng,0,CN,1587600377,39,35.91,116.31,50.54,10.67
350,terra santa,96,BR,1587600377,92,-2.1,-56.49,76.75,0.58
351,sao joao da barra,3,BR,1587600244,79,-21.64,-41.05,72.64,6.04
352,albion,90,US,1587600223,86,42.24,-84.75,35.6,8.05
353,bridlington,73,GB,1587600377,93,54.08,-0.19,43.0,4.7
354,shymkent,41,KZ,1587600272,67,42.3,69.6,59.0,11.18
355,naduvattam,68,IN,1587600377,57,11.48,76.57,56.12,1.79
356,jorhat,82,IN,1587600377,86,26.75,94.22,65.59,7.58
357,nizhniy tsasuchey,0,RU,1587600242,42,50.52,115.13,41.94,10.83
358,saint-francois,40,FR,1587600247,81,46.42,3.91,51.8,2.24
359,puerto escondido,5,MX,1587600377,79,15.85,-97.07,86.0,11.41
360,geraldton,93,AU,1587600255,88,-28.77,114.6,62.6,6.93
361,kedzierzyn-kozle,5,PL,1587600377,60,50.35,18.23,44.01,1.01
362,panjab,93,AF,1587600377,27,34.39,67.02,33.66,3.27
363,biu,42,NG,1587600377,13,10.61,12.19,79.61,1.97
364,hambantota,100,LK,1587600364,79,6.12,81.12,80.26,4.07
365,eureka,90,US,1587599954,100,40.8,-124.16,60.8,4.7
366,mount gambier,100,AU,1587600241,81,-37.83,140.77,53.6,14.99
367,kochubey,99,RU,1587600378,62,44.39,46.58,49.86,14.2
368,palestine,40,PS,1587600378,88,31.92,35.2,66.99,6.93
369,kirakira,91,SB,1587600378,69,-10.45,161.92,86.04,6.96
370,flinders,12,AU,1587600057,55,-34.58,150.86,68.0,10.29
371,skibbereen,100,IE,1587600378,76,51.55,-9.27,51.8,8.05
372,yar-sale,100,RU,1587600378,98,66.83,70.83,36.25,21.72
373,murgab,20,TM,1587600242,68,37.5,61.97,68.0,4.7
374,huercal-overa,74,ES,1587600378,87,37.39,-1.95,54.0,1.01
375,ruidoso,1,US,1587600378,15,33.33,-105.67,64.4,26.4
376,denpasar,20,ID,1587600378,100,-8.65,115.22,82.4,6.93
377,alofi,75,NU,1587600264,88,-19.06,-169.92,82.4,5.82
378,baturaja,99,ID,1587600378,91,-4.13,104.17,75.94,1.81
379,mitsamiouli,26,KM,1587600378,69,-11.38,43.28,82.49,4.18
380,vidisha,37,IN,1587600378,19,23.53,77.82,79.36,5.59
381,port macquarie,12,AU,1587600378,68,-31.43,152.92,71.01,1.01
382,salinopolis,70,BR,1587600227,83,-0.61,-47.36,79.57,7.18
383,dafeng,100,CN,1587600378,85,23.45,108.59,59.09,7.0
384,zharkent,11,KZ,1587600378,25,44.16,80.0,60.91,7.7
385,college,20,US,1587600264,38,64.86,-147.8,46.99,5.82
386,kodinsk,55,RU,1587600378,72,58.69,99.18,39.36,3.04
387,poso,49,ID,1587600378,58,-1.4,120.75,84.94,1.23
388,bundaberg,0,AU,1587600331,73,-24.85,152.35,77.0,8.05
389,harbour breton,98,CA,1587600378,94,47.48,-55.8,38.62,25.39
390,antalaha,20,MG,1587600378,83,-14.9,50.28,73.98,9.73
391,muzhi,100,RU,1587600378,98,65.37,64.67,39.0,21.7
392,vila do maio,20,CV,1587600378,68,15.13,-23.22,71.6,18.34
393,rawson,36,AR,1587600249,63,-43.3,-65.1,56.41,13.53
394,miami,20,US,1587600374,65,25.77,-80.19,82.4,14.99
395,yelan,97,RU,1587600379,91,50.95,43.74,33.01,8.68
396,san joaquin,88,VE,1587600379,75,10.26,-67.79,75.85,5.03
397,bosaso,40,SO,1587600379,72,11.28,49.18,82.81,3.51
398,masterton,100,NZ,1587600379,67,-40.96,175.66,62.01,3.0
399,tandil,73,AR,1587600198,75,-37.32,-59.13,51.01,3.27
400,yumen,17,CN,1587600379,21,40.28,97.2,45.23,11.16
401,goderich,87,CA,1587600244,62,43.75,-81.72,35.01,4.68
402,whyalla,92,AU,1587600379,28,-33.03,137.58,73.4,20.8
403,lethem,75,GY,1587600379,51,3.38,-59.8,84.45,6.42
404,bukama,76,CD,1587600379,75,-9.2,25.85,67.6,1.41
405,taguisa,53,PH,1587600379,64,6.7,124.04,84.18,3.44
406,dawei,100,MM,1587600379,58,14.08,98.2,82.17,3.36
407,santiago del estero,12,AR,1587600379,53,-27.8,-64.26,70.7,8.1
408,ust-barguzin,78,RU,1587600379,57,53.45,108.98,36.3,1.83
409,ilulissat,32,GL,1587600252,45,69.22,-51.1,44.6,24.16
410,egvekinot,100,RU,1587600379,88,66.32,-179.17,20.35,4.29
411,bataipora,0,BR,1587600379,60,-22.3,-53.27,67.3,3.96
412,campbellton,63,CA,1587600379,94,48.01,-66.67,28.74,10.85
413,deputatskiy,99,RU,1587600261,92,69.3,139.9,16.66,3.65
414,anaco,69,VE,1587600379,54,9.44,-64.47,82.18,3.94
415,kirkwall,42,GB,1587600379,93,58.98,-2.96,45.0,11.43
416,kyshtovka,85,RU,1587600256,53,56.55,76.63,55.89,13.49
417,pochutla,20,MX,1587600380,55,15.74,-96.47,87.8,17.22
418,lastoursville,96,GA,1587600380,83,-0.81,12.73,73.38,0.63
419,portland,90,US,1587600214,82,45.52,-122.68,59.0,10.29
420,sorland,100,NO,1587600380,91,67.67,12.69,41.18,15.28
421,veracruz,75,MX,1587600212,59,19.33,-96.67,89.6,8.05
422,marawi,77,PH,1587600380,73,8.0,124.29,81.0,1.99
423,progreso,40,MX,1587600380,27,21.28,-89.67,102.2,18.34
424,sistranda,40,NO,1587600380,86,63.73,8.83,39.2,6.93
425,izazi,100,TZ,1587600380,69,-7.2,35.73,69.08,2.26
426,srednekolymsk,91,RU,1587600380,93,67.45,153.68,26.73,7.7
427,mareeba,75,AU,1587600380,66,-17.0,145.43,84.2,11.41
428,baykit,79,RU,1587600380,78,61.67,96.37,35.6,0.65
429,vostok,96,RU,1587600248,90,46.49,135.88,21.09,10.63
430,orumiyeh,75,IR,1587600380,93,37.55,45.08,51.8,4.7
431,merrill,40,US,1587600380,65,45.18,-89.68,42.8,10.29
432,hauterive,77,FR,1587600380,87,46.09,3.45,59.0,2.24
433,sal rei,75,CV,1587600380,64,16.18,-22.92,71.6,17.22
434,palatka,1,US,1587600380,45,29.65,-81.64,71.01,8.05
435,port hardy,40,CA,1587600380,67,50.7,-127.42,57.2,5.82
436,codrington,100,AU,1587600264,67,-38.27,141.97,59.05,16.49
437,kailua,1,US,1587600380,65,21.4,-157.74,82.4,11.41
438,lourdes,90,FR,1587600380,93,43.1,-0.05,51.8,3.36
439,nishihara,90,JP,1587600381,59,26.18,127.76,64.4,4.7
440,tautira,6,PF,1587600257,62,-17.73,-149.15,87.8,8.05
441,lerwick,39,GB,1587600381,93,60.15,-1.15,44.6,4.7
442,port keats,7,AU,1587600381,56,-14.25,129.55,82.69,9.31
443,kandrian,92,PG,1587600261,70,-6.22,149.55,83.82,4.36
444,beroroha,25,MG,1587600381,72,-21.67,45.17,69.89,5.46
445,seymchan,58,RU,1587600381,88,62.88,152.43,20.44,3.33
446,yagodnoye,93,RU,1587600381,84,62.55,149.67,17.56,1.36
447,dejen,30,ET,1587600381,31,10.17,38.13,58.55,0.87
448,tarko-sale,64,RU,1587600381,85,64.92,77.78,37.0,25.03
449,agirish,96,RU,1587600381,77,61.92,63.02,36.88,18.92
450,beringovskiy,0,RU,1587600262,92,63.05,179.32,16.81,9.57
451,batagay-alyta,95,RU,1587600381,91,67.8,130.41,25.39,2.44
452,xam nua,100,LA,1587600381,71,20.42,104.04,68.02,2.77
453,kazerun,0,IR,1587600381,57,29.62,51.65,62.49,0.67
454,hutchinson,90,US,1587600381,93,38.06,-97.93,60.01,9.17
455,arlit,10,NE,1587600381,16,18.74,7.39,89.22,3.91
456,fortuna,90,US,1587600252,87,40.6,-124.16,60.8,4.7
457,saint-augustin,100,CA,1587600248,87,51.23,-58.65,34.61,20.0
458,talnakh,100,RU,1587600245,86,69.49,88.4,30.2,20.13
459,korla,0,CN,1587600381,27,41.76,86.15,58.59,5.19
460,price,25,US,1587600381,26,39.6,-110.81,62.01,4.0
461,celestun,96,MX,1587600246,68,20.87,-90.4,85.35,14.81
462,tinskoy,3,RU,1587600381,51,56.15,96.92,51.67,2.77
463,labuhan,94,ID,1587600255,82,-6.88,112.21,81.48,6.62
464,shubarshi,41,KZ,1587600381,66,48.59,57.19,42.3,11.56
465,plover,1,US,1587600381,56,44.46,-89.54,46.4,16.11
466,neryungri,87,RU,1587600360,72,56.67,124.65,30.51,0.65
467,cubuk,75,TR,1587600382,86,40.24,33.03,41.0,6.93
468,malakal,0,SS,1587600250,13,9.53,31.66,81.09,3.49
469,garowe,16,SO,1587600382,65,8.41,48.48,78.01,10.47
470,alta floresta,96,BR,1587600382,86,-9.88,-56.09,73.69,1.12
471,alexandria,0,EG,1587600382,82,31.22,29.96,64.4,8.05
472,villiers,2,ZA,1587600382,37,-27.03,28.6,53.19,5.86
473,katsuura,75,JP,1587600250,67,35.13,140.3,55.99,6.93
474,laguna,1,US,1587600255,36,38.42,-121.42,84.0,5.82
475,anito,87,PH,1587600264,82,12.45,125.29,82.33,10.16
476,bardiyah,18,LY,1587600239,87,31.76,25.09,61.07,7.02
477,bilma,3,NE,1587600382,12,18.69,12.92,85.12,5.77
478,linjiang,100,CN,1587600382,68,41.81,126.91,34.72,6.17
479,gisborne,100,NZ,1587600382,61,-38.65,178.0,69.01,5.99
480,quatre cocos,40,MU,1587600243,88,-20.21,57.76,75.2,6.93
481,vao,1,NC,1587600260,75,-22.67,167.48,75.58,12.62
482,padang,96,ID,1587600103,78,-0.95,100.35,78.67,2.13
483,chenzhou,100,CN,1587600382,85,25.8,113.03,56.48,5.57
484,darhan,30,MN,1587600382,43,49.49,105.92,38.34,7.52
485,carovigno,75,IT,1587600382,93,40.71,17.66,55.4,9.17
486,berbera,54,SO,1587600249,73,10.44,45.01,83.14,4.32
487,tazmalt,40,DZ,1587600382,93,36.39,4.4,53.6,4.7
488,chalmette,90,US,1587600382,69,29.94,-89.96,77.0,4.7
489,pyapon,4,MM,1587600382,87,16.28,95.68,76.42,3.74
490,concepcion del uruguay,63,AR,1587600123,80,-32.48,-58.24,70.0,1.99
491,coahuayana,20,MX,1587600263,48,18.73,-103.68,82.4,17.22
492,koslan,97,RU,1587600382,91,63.46,48.9,21.61,12.93
493,dindori,27,IN,1587600383,27,22.95,81.08,73.51,3.18
494,say,62,NE,1587600383,13,13.1,2.37,96.8,4.7
495,teknaf,57,BD,1587600383,76,20.86,92.31,74.91,3.38
496,emba,44,KZ,1587600254,64,48.83,58.14,41.94,12.12
497,fairbanks,1,US,1587600249,45,64.84,-147.72,46.99,4.7
498,dickinson,90,US,1587600383,78,29.46,-95.05,81.0,23.04
499,okhotsk,100,RU,1587600383,91,59.38,143.3,25.36,9.1
500,port hawkesbury,51,CA,1587600383,76,45.62,-61.35,35.01,4.0
501,new waterford,90,US,1587600383,64,40.85,-80.61,39.2,3.36
502,naranjal,40,EC,1587600383,62,-2.67,-79.62,87.8,4.7
503,whitehorse,75,CA,1587600383,61,60.72,-135.05,46.4,2.24
504,lithakia,99,GR,1587600383,93,37.72,20.83,52.0,5.82
505,hervey bay,1,AU,1587600260,69,-25.3,152.85,80.01,8.01
506,luanda,93,AO,1587600130,89,-8.84,13.23,76.46,7.02
507,onega,15,RU,1587600383,89,63.91,38.14,26.46,18.12
508,fushun,23,CN,1587600368,59,41.86,123.92,37.4,4.47
509,hofn,81,IS,1587600243,65,64.25,-15.21,41.81,8.99
510,mokhsogollokh,93,RU,1587600383,79,61.47,128.92,35.15,3.36
511,esna,0,EG,1587600383,30,25.29,32.55,80.6,8.5
512,oranjemund,100,NA,1587600383,79,-28.55,16.43,62.28,6.82
513,voyinka,32,UA,1587600383,75,45.87,33.99,44.26,7.87
514,kavaratti,84,IN,1587600249,72,10.57,72.64,84.83,4.72
515,ducheng,100,CN,1587600384,90,23.24,111.53,62.89,3.44
516,tres arroyos,88,AR,1587600384,51,-38.37,-60.28,56.25,6.93
517,klaksvik,0,FO,1587600252,86,62.23,-6.59,41.0,4.7
518,darnah,31,LY,1587600384,80,32.77,22.64,60.82,5.3
519,miyako,38,JP,1587600384,63,39.64,141.95,45.45,8.88
520,biga,60,TR,1587600245,66,40.23,27.24,48.2,20.8
521,yerbogachen,83,RU,1587600098,77,61.28,108.01,34.5,16.6
522,shirokiy,28,RU,1587600384,67,49.76,129.52,35.83,11.16
523,wenling,100,CN,1587600308,91,28.37,121.36,57.0,2.77
524,leningradskiy,74,RU,1587600242,92,69.38,178.42,18.75,5.26
525,mocajuba,86,BR,1587600384,94,-2.58,-49.51,75.63,2.48
526,sirsi,43,IN,1587600384,80,14.62,74.85,70.36,3.44
527,huilong,13,CN,1587600384,67,31.81,121.66,57.99,3.96
528,achinsk,100,RU,1587600384,49,56.27,90.5,52.07,6.89
529,gizo,90,SB,1587600242,74,-8.1,156.84,84.24,5.68
530,tevriz,100,RU,1587600252,75,57.51,72.4,48.78,7.65
531,mandalgovi,0,MN,1587600384,35,45.76,106.27,32.09,10.89
532,evensk,29,RU,1587600257,92,61.95,159.23,26.29,11.81
533,sept-iles,90,CA,1587600254,86,50.2,-66.38,30.2,11.41
534,ushtobe,17,KZ,1587600384,33,45.25,77.98,61.9,6.11
535,prince rupert,90,CA,1587600384,74,54.32,-130.32,46.4,4.7
536,vyshneve,12,UA,1587600384,74,50.39,30.37,41.0,2.24
537,dunedin,77,NZ,1587600384,76,-45.87,170.5,55.0,1.99
538,aykhal,75,RU,1587600263,86,66.0,111.5,32.0,8.95
539,puerto madryn,66,AR,1587600127,58,-42.77,-65.04,57.43,13.89
540,de-kastri,100,RU,1587600252,95,51.47,140.78,32.27,17.18
541,ferrol,90,ES,1587600385,100,43.48,-8.24,51.01,4.7
542,cabrera,8,DO,1587600385,88,19.64,-69.9,80.01,7.02
543,edson,81,CA,1587600385,28,53.58,-116.44,54.28,13.38
544,povorino,70,RU,1587600385,83,51.19,42.25,34.0,7.0
545,crestview,1,US,1587600385,44,30.76,-86.57,75.2,4.7
546,koulamoutou,100,GA,1587600385,85,-1.13,12.47,72.32,1.01
547,spring hill,99,US,1587600277,40,28.48,-82.53,79.0,6.38
548,oil city,90,US,1587600385,44,41.43,-79.71,41.0,10.29
549,parana,65,AR,1587600385,65,-31.73,-60.52,77.0,4.0
550,nampula,18,MZ,1587600385,88,-15.12,39.27,65.97,6.06
551,fuyu,24,CN,1587600385,65,45.18,124.82,39.47,12.46
552,massaguet,60,TD,1587600385,14,12.48,15.44,86.0,1.12
553,verkhoyansk,95,RU,1587600247,94,67.54,133.38,25.38,3.09
554,muchkapskiy,63,RU,1587600385,92,51.85,42.47,31.08,10.36
555,axim,98,GH,1587600034,85,4.87,-2.24,80.64,7.72
556,zainsk,75,RU,1587600385,93,55.32,52.07,32.0,13.42
557,ambovombe,87,MG,1587600385,81,-25.17,46.08,69.24,9.42
558,sitka,90,US,1587600240,93,57.05,-135.33,44.6,9.17
559,kawalu,100,ID,1587600385,79,-7.38,108.21,75.97,1.14
560,boa vista,40,BR,1587600385,58,2.82,-60.67,87.8,6.93
561,karlskoga,28,SE,1587600385,62,59.33,14.52,50.0,8.05
562,manono,98,CD,1587600385,79,-7.3,27.42,68.85,1.16
563,kuantan,20,MY,1587600386,94,3.81,103.33,77.0,4.72
564,camacha,40,PT,1587600386,67,33.08,-16.33,60.8,8.05
565,supe,20,PE,1587600386,69,-10.8,-77.73,72.0,6.96
566,bilibino,44,RU,1587600386,80,68.05,166.44,19.83,2.82
567,el cope,71,PA,1587600098,46,8.62,-80.6,80.01,9.33
568,kodino,69,RU,1587600386,92,63.72,39.64,24.49,11.7
569,zelenogorskiy,100,RU,1587600386,39,55.03,87.0,48.2,6.71
570,monterey,0,US,1587600386,34,36.25,-121.25,77.0,7.0
571,bitung,20,ID,1587600386,78,1.45,125.18,82.4,1.12
572,bako,57,ET,1587600386,59,5.78,36.57,62.71,2.73
573,sola,84,VU,1587600240,75,-13.88,167.55,82.71,8.97
574,maniitsoq,100,GL,1587600386,77,65.42,-52.9,37.17,8.88
